[
  {
    "Id": "3041565",
    "Code": "AD",
    "languages": "ca",
    "Name_EN": "Andorra",
    "Name_FA": "اندورا",
    "Name_AR": "اندورا",
    "PhoneCode": "376",
    "Latitude": 42.535001875,
    "Longitude": 1.5590275
  },
  {
    "Id": "290557",
    "Code": "AE",
    "languages": "ar-AE,fa,en,hi,ur",
    "Name_EN": "United Arab Emirates",
    "Name_FA": "امارات متحده عربی",
    "Name_AR": "الامارات العربية المتحدة",
    "PhoneCode": "971",
    "Latitude": 25.055425384615393,
    "Longitude": 55.37372778846152
  },
  {
    "Id": "1149361",
    "Code": "AF",
    "languages": "fa-AF,ps,uz-AF,tk",
    "Name_EN": "Afghanistan",
    "Name_FA": "افغانستان",
    "Name_AR": "افغانستان",
    "PhoneCode": "93",
    "Latitude": 34.61547746835442,
    "Longitude": 67.5323678164557
  },
  {
    "Id": "3576396",
    "Code": "AG",
    "languages": "en-AG",
    "Name_EN": "Antigua and Barbuda",
    "Name_FA": "انتیگوا و باربودا",
    "Name_AR": "انتيغوا وبربودا",
    "PhoneCode": "+1-268",
    "Latitude": 17.10227038461538,
    "Longitude": -61.8086576923077
  },
  {
    "Id": "3573511",
    "Code": "AI",
    "languages": "en-AI",
    "Name_EN": "Anguilla",
    "Name_FA": "انگیل",
    "Name_AR": "انغويلا",
    "PhoneCode": "+1-264",
    "Latitude": 18.210446428571426,
    "Longitude": -63.057247142857136
  },
  {
    "Id": "783754",
    "Code": "AL",
    "languages": "sq,el",
    "Name_EN": "Albania",
    "Name_FA": "البانی",
    "Name_AR": "البانيا",
    "PhoneCode": "355",
    "Latitude": 41.06292019323671,
    "Longitude": 20.004681835748794
  },
  {
    "Id": "174982",
    "Code": "AM",
    "languages": "hy",
    "Name_EN": "Armenia",
    "Name_FA": "ارمنستان",
    "Name_AR": "ارمينيا",
    "PhoneCode": "374",
    "Latitude": 40.352401885895404,
    "Longitude": 44.59561508716326
  },
  {
    "Id": "3351879",
    "Code": "AO",
    "languages": "pt-AO",
    "Name_EN": "Angola",
    "Name_FA": "انگولا",
    "Name_AR": "انغولا",
    "PhoneCode": "244",
    "Latitude": -11.072572318840582,
    "Longitude": 15.943452826086958
  },
  {
    "Id": "6697173",
    "Code": "AQ",
    "languages": "",
    "Name_EN": "Antarctica",
    "Name_FA": "جنوبگان",
    "Name_AR": "القطب الجنوبي",
    "PhoneCode": "",
    "Latitude": 0,
    "Longitude": 0
  },
  {
    "Id": "3865483",
    "Code": "AR",
    "languages": "es-AR,en,it,de,fr,gn",
    "Name_EN": "Argentina",
    "Name_FA": "ارژانتین",
    "Name_AR": "الارجنتين",
    "PhoneCode": "54",
    "Latitude": -32.15954465093411,
    "Longitude": -62.489580943952845
  },
  {
    "Id": "5880801",
    "Code": "AS",
    "languages": "en-AS,sm,to",
    "Name_EN": "American Samoa",
    "Name_FA": "ساموای امریکا",
    "Name_AR": "ساموا الامريكية",
    "PhoneCode": "+1-684",
    "Latitude": -14.189016071428572,
    "Longitude": -170.61237464285713
  },
  {
    "Id": "2782113",
    "Code": "AT",
    "languages": "de-AT,hr,hu,sl",
    "Name_EN": "Austria",
    "Name_FA": "اتریش",
    "Name_AR": "النمسا",
    "PhoneCode": "43",
    "Latitude": 47.63551814083571,
    "Longitude": 14.431692843040421
  },
  {
    "Id": "2077456",
    "Code": "AU",
    "languages": "en-AU",
    "Name_EN": "Australia",
    "Name_FA": "استرالیا",
    "Name_AR": "استراليا",
    "PhoneCode": "61",
    "Latitude": -32.12214030847784,
    "Longitude": 144.06238236772225
  },
  {
    "Id": "3577279",
    "Code": "AW",
    "languages": "nl-AW,pap,es,en",
    "Name_EN": "Aruba",
    "Name_FA": "اروبا",
    "Name_AR": "اروبا",
    "PhoneCode": "297",
    "Latitude": 0,
    "Longitude": 0
  },
  {
    "Id": "661882",
    "Code": "AX",
    "languages": "sv-AX",
    "Name_EN": "Aland Islands",
    "Name_FA": "جزایر الاند",
    "Name_AR": "اولان",
    "PhoneCode": "+358-18",
    "Latitude": 60.187753529411765,
    "Longitude": 20.220669411764707
  },
  {
    "Id": "587116",
    "Code": "AZ",
    "languages": "az,ru,hy",
    "Name_EN": "Azerbaijan",
    "Name_FA": "جمهوری اذربایجان",
    "Name_AR": "اذربيجان",
    "PhoneCode": "994",
    "Latitude": 40.29773756613758,
    "Longitude": 47.74100423280426
  },
  {
    "Id": "3277605",
    "Code": "BA",
    "languages": "bs,hr-BA,sr-BA",
    "Name_EN": "Bosnia and Herzegovina",
    "Name_FA": "بوسنی و هرزگوین",
    "Name_AR": "البوسنة والهرسك",
    "PhoneCode": "387",
    "Latitude": 44.37366952542372,
    "Longitude": 17.80226213559323
  },
  {
    "Id": "3374084",
    "Code": "BB",
    "languages": "en-BB",
    "Name_EN": "Barbados",
    "Name_FA": "باربادوس",
    "Name_AR": "بربادوس",
    "PhoneCode": "+1-246",
    "Latitude": 13.182762666666665,
    "Longitude": -59.57248666666668
  },
  {
    "Id": "1210997",
    "Code": "BD",
    "languages": "bn-BD,en",
    "Name_EN": "Bangladesh",
    "Name_FA": "بنگلادش",
    "Name_AR": "بنغلاديش",
    "PhoneCode": "880",
    "Latitude": 23.763422953020136,
    "Longitude": 90.22241677852348
  },
  {
    "Id": "2802361",
    "Code": "BE",
    "languages": "nl-BE,fr-BE,de-BE",
    "Name_EN": "Belgium",
    "Name_FA": "بلژیک",
    "Name_AR": "بلجيكا",
    "PhoneCode": "32",
    "Latitude": 50.68457048758861,
    "Longitude": 4.551147748226961
  },
  {
    "Id": "2361809",
    "Code": "BF",
    "languages": "fr-BF,mos",
    "Name_EN": "Burkina Faso",
    "Name_FA": "بورکینافاسو",
    "Name_AR": "بوركينا فاسو",
    "PhoneCode": "226",
    "Latitude": 12.344159454545444,
    "Longitude": -1.6260368181818186
  },
  {
    "Id": "732800",
    "Code": "BG",
    "languages": "bg,tr-BG,rom",
    "Name_EN": "Bulgaria",
    "Name_FA": "بلغارستان",
    "Name_AR": "بلغاريا",
    "PhoneCode": "359",
    "Latitude": 42.8026153488372,
    "Longitude": 25.190812890365454
  },
  {
    "Id": "290291",
    "Code": "BH",
    "languages": "ar-BH,en,fa,ur",
    "Name_EN": "Bahrain",
    "Name_FA": "بحرین",
    "Name_AR": "البحرين",
    "PhoneCode": "973",
    "Latitude": 26.181869999999996,
    "Longitude": 50.568454
  },
  {
    "Id": "433561",
    "Code": "BI",
    "languages": "fr-BI,rn",
    "Name_EN": "Burundi",
    "Name_FA": "بوروندی",
    "Name_AR": "بوروندي",
    "PhoneCode": "257",
    "Latitude": -3.3530144827586206,
    "Longitude": 29.745743448275864
  },
  {
    "Id": "2395170",
    "Code": "BJ",
    "languages": "fr-BJ",
    "Name_EN": "Benin",
    "Name_FA": "بنین",
    "Name_AR": "بنين",
    "PhoneCode": "229",
    "Latitude": 8.094018414634146,
    "Longitude": 2.2228280487804875
  },
  {
    "Id": "3578476",
    "Code": "BL",
    "languages": "fr",
    "Name_EN": "Saint Barthelemy",
    "Name_FA": "سن بارتلمی",
    "Name_AR": "سان بارتليمي",
    "PhoneCode": "590",
    "Latitude": 0,
    "Longitude": 0
  },
  {
    "Id": "3573345",
    "Code": "BM",
    "languages": "en-BM,pt",
    "Name_EN": "Bermuda",
    "Name_FA": "برمودا",
    "Name_AR": "برمودا",
    "PhoneCode": "+1-441",
    "Latitude": 32.308617500000004,
    "Longitude": -64.78018666666667
  },
  {
    "Id": "1820814",
    "Code": "BN",
    "languages": "ms-BN,en-BN",
    "Name_EN": "Brunei",
    "Name_FA": "برونيی",
    "Name_AR": "بروناي",
    "PhoneCode": "673",
    "Latitude": 4.843613913043478,
    "Longitude": 114.78496217391304
  },
  {
    "Id": "3923057",
    "Code": "BO",
    "languages": "es-BO,qu,ay",
    "Name_EN": "Bolivia",
    "Name_FA": "بولیوی",
    "Name_AR": "بوليفيا",
    "PhoneCode": "591",
    "Latitude": -17.929810000000007,
    "Longitude": -65.3196902259887
  },
  {
    "Id": "7626844",
    "Code": "BQ",
    "languages": "nl,pap,en",
    "Name_EN": "Bonaire, Saint Eustatius and Saba ",
    "Name_FA": "جزایر کارايیب هلند",
    "Name_AR": "بونير وسينت اوستاتيوس وسابا",
    "PhoneCode": "599",
    "Latitude": 14.562052222222226,
    "Longitude": -65.98436111111111
  },
  {
    "Id": "3469034",
    "Code": "BR",
    "languages": "pt-BR,es,en,fr",
    "Name_EN": "Brazil",
    "Name_FA": "برزیل",
    "Name_AR": "البرازيل",
    "PhoneCode": "55",
    "Latitude": -16.25850592415248,
    "Longitude": -46.38599626891404
  },
  {
    "Id": "3572887",
    "Code": "BS",
    "languages": "en-BS",
    "Name_EN": "Bahamas",
    "Name_FA": "باهاما",
    "Name_AR": "البهاما",
    "PhoneCode": "+1-242",
    "Latitude": 24.758381785714285,
    "Longitude": -76.51734535714286
  },
  {
    "Id": "1252634",
    "Code": "BT",
    "languages": "dz",
    "Name_EN": "Bhutan",
    "Name_FA": "بوتان",
    "Name_AR": "بوتان",
    "PhoneCode": "975",
    "Latitude": 27.244503666666667,
    "Longitude": 90.38545666666664
  },
  {
    "Id": "3371123",
    "Code": "BV",
    "languages": "",
    "Name_EN": "Bouvet Island",
    "Name_FA": "جزیره بووت",
    "Name_AR": "جزيرة بوفيه",
    "PhoneCode": "",
    "Latitude": 0,
    "Longitude": 0
  },
  {
    "Id": "933860",
    "Code": "BW",
    "languages": "en-BW,tn-BW",
    "Name_EN": "Botswana",
    "Name_FA": "بوتسوانا",
    "Name_AR": "بوتسوانا",
    "PhoneCode": "267",
    "Latitude": -22.894675440000007,
    "Longitude": 25.810418880000004
  },
  {
    "Id": "630336",
    "Code": "BY",
    "languages": "be,ru",
    "Name_EN": "Belarus",
    "Name_FA": "بیلوروسی",
    "Name_AR": "بيلاروس",
    "PhoneCode": "375",
    "Latitude": 53.63527472843452,
    "Longitude": 27.841500766773166
  },
  {
    "Id": "3582678",
    "Code": "BZ",
    "languages": "en-BZ,es",
    "Name_EN": "Belize",
    "Name_FA": "بلیز",
    "Name_AR": "بليز",
    "PhoneCode": "501",
    "Latitude": 17.359984275362322,
    "Longitude": -88.64357376811596
  },
  {
    "Id": "6251999",
    "Code": "CA",
    "languages": "en-CA,fr-CA,iu",
    "Name_EN": "Canada",
    "Name_FA": "کانادا",
    "Name_AR": "كندا",
    "PhoneCode": "1",
    "Latitude": 47.824977468749985,
    "Longitude": -86.24121124999982
  },
  {
    "Id": "1547376",
    "Code": "CC",
    "languages": "ms-CC,en",
    "Name_EN": "Cocos Islands",
    "Name_FA": "جزایر کوکوس",
    "Name_AR": "جزر كوكوس (كيلينغ)",
    "PhoneCode": "61",
    "Latitude": 0,
    "Longitude": 0
  },
  {
    "Id": "203312",
    "Code": "CD",
    "languages": "fr-CD,ln,ktu,kg,sw,lua",
    "Name_EN": "Democratic Republic of the Congo",
    "Name_FA": "کنگو - کینشاسا",
    "Name_AR": "جمهورية الكونغو الديمقراطية",
    "PhoneCode": "243",
    "Latitude": -3.372084655172414,
    "Longitude": 23.51434534482758
  },
  {
    "Id": "239880",
    "Code": "CF",
    "languages": "fr-CF,sg,ln,kg",
    "Name_EN": "Central African Republic",
    "Name_FA": "جمهوری افریقای مرکزی",
    "Name_AR": "جمهورية افريقيا الوسطى",
    "PhoneCode": "236",
    "Latitude": 5.64939340425532,
    "Longitude": 19.095633191489362
  },
  {
    "Id": "2260494",
    "Code": "CG",
    "languages": "fr-CG,kg,ln-CG",
    "Name_EN": "Republic of the Congo",
    "Name_FA": "کنگو (جمهوری)",
    "Name_AR": "الكونغو",
    "PhoneCode": "242",
    "Latitude": -2.035326724137931,
    "Longitude": 14.665384310344823
  },
  {
    "Id": "2658434",
    "Code": "CH",
    "languages": "de-CH,fr-CH,it-CH,rm",
    "Name_EN": "Switzerland",
    "Name_FA": "سويیس",
    "Name_AR": "سويسرا",
    "PhoneCode": "41",
    "Latitude": 47.06653350422833,
    "Longitude": 8.120698541226215
  },
  {
    "Id": "2287781",
    "Code": "CI",
    "languages": "fr-CI",
    "Name_EN": "Ivory Coast",
    "Name_FA": "ساحل‌عاج",
    "Name_AR": "ساحل العاج",
    "PhoneCode": "225",
    "Latitude": 7.364961883775362,
    "Longitude": -5.623829062012487
  },
  {
    "Id": "1899402",
    "Code": "CK",
    "languages": "en-CK,mi",
    "Name_EN": "Cook Islands",
    "Name_FA": "جزایر کوک",
    "Name_AR": "جزر كوك",
    "PhoneCode": "682",
    "Latitude": -21.2075,
    "Longitude": -159.77546
  },
  {
    "Id": "3895114",
    "Code": "CL",
    "languages": "es-CL",
    "Name_EN": "Chile",
    "Name_FA": "شیلی",
    "Name_AR": "تشيلي",
    "PhoneCode": "56",
    "Latitude": -34.93106192771086,
    "Longitude": -71.91000030120482
  },
  {
    "Id": "2233387",
    "Code": "CM",
    "languages": "en-CM,fr-CM",
    "Name_EN": "Cameroon",
    "Name_FA": "کامرون",
    "Name_AR": "الكاميرون",
    "PhoneCode": "237",
    "Latitude": 5.759742642857143,
    "Longitude": 11.547975714285714
  },
  {
    "Id": "1814991",
    "Code": "CN",
    "languages": "zh-CN,yue,wuu,dta,ug,za",
    "Name_EN": "China",
    "Name_FA": "چین",
    "Name_AR": "الصين",
    "PhoneCode": "86",
    "Latitude": 31.91228031267613,
    "Longitude": 112.95862479729286
  },
  {
    "Id": "3686110",
    "Code": "CO",
    "languages": "es-CO",
    "Name_EN": "Colombia",
    "Name_FA": "کلمبیا",
    "Name_AR": "كولومبيا",
    "PhoneCode": "57",
    "Latitude": 5.663534562446898,
    "Longitude": -74.7403252591333
  },
  {
    "Id": "3624060",
    "Code": "CR",
    "languages": "es-CR,en",
    "Name_EN": "Costa Rica",
    "Name_FA": "کاستاریکا",
    "Name_AR": "كوستاريكا",
    "PhoneCode": "506",
    "Latitude": 9.970422352941181,
    "Longitude": -84.22176757352943
  },
  {
    "Id": "3562981",
    "Code": "CU",
    "languages": "es-CU,pap",
    "Name_EN": "Cuba",
    "Name_FA": "کوبا",
    "Name_AR": "كوبا",
    "PhoneCode": "53",
    "Latitude": 22.08273661904761,
    "Longitude": -79.9284221904762
  },
  {
    "Id": "3374766",
    "Code": "CV",
    "languages": "pt-CV",
    "Name_EN": "Cabo Verde",
    "Name_FA": "کیپ‌ورد",
    "Name_AR": "الراس الاخضر",
    "PhoneCode": "238",
    "Latitude": 15.753738799999997,
    "Longitude": -23.987786
  },
  {
    "Id": "7626836",
    "Code": "CW",
    "languages": "nl,pap",
    "Name_EN": "Curacao",
    "Name_FA": "کوراسايو",
    "Name_AR": "كوراساو",
    "PhoneCode": "599",
    "Latitude": 0,
    "Longitude": 0
  },
  {
    "Id": "2078138",
    "Code": "CX",
    "languages": "en,zh,ms-CX",
    "Name_EN": "Christmas Island",
    "Name_FA": "جزیره کریسمس",
    "Name_AR": "جزيرة كريسماس",
    "PhoneCode": "61",
    "Latitude": 0,
    "Longitude": 0
  },
  {
    "Id": "146669",
    "Code": "CY",
    "languages": "el-CY,tr-CY,en",
    "Name_EN": "Cyprus",
    "Name_FA": "قبرس",
    "Name_AR": "قبرص",
    "PhoneCode": "357",
    "Latitude": 34.953037751937984,
    "Longitude": 33.172551162790704
  },
  {
    "Id": "3077311",
    "Code": "CZ",
    "languages": "cs,sk",
    "Name_EN": "Czechia",
    "Name_FA": "چک",
    "Name_AR": "التشيك",
    "PhoneCode": "420",
    "Latitude": 49.758541742187425,
    "Longitude": 15.658763925781278
  },
  {
    "Id": "2921044",
    "Code": "DE",
    "languages": "de",
    "Name_EN": "Germany",
    "Name_FA": "المان",
    "Name_AR": "المانيا",
    "PhoneCode": "49",
    "Latitude": 50.90243723679659,
    "Longitude": 9.964172668277525
  },
  {
    "Id": "223816",
    "Code": "DJ",
    "languages": "fr-DJ,ar,so-DJ,aa",
    "Name_EN": "Djibouti",
    "Name_FA": "جیبوتی",
    "Name_AR": "جيبوتي",
    "PhoneCode": "253",
    "Latitude": 11.598074074074077,
    "Longitude": 42.758519629629625
  },
  {
    "Id": "2623032",
    "Code": "DK",
    "languages": "da-DK,en,fo,de-DK",
    "Name_EN": "Denmark",
    "Name_FA": "دانمارک",
    "Name_AR": "الدانمرك",
    "PhoneCode": "45",
    "Latitude": 55.85349707317073,
    "Longitude": 10.688652215447162
  },
  {
    "Id": "3575830",
    "Code": "DM",
    "languages": "en-DM",
    "Name_EN": "Dominica",
    "Name_FA": "دومینیک",
    "Name_AR": "دومينيكا",
    "PhoneCode": "+1-767",
    "Latitude": 15.420228947368422,
    "Longitude": -61.35750473684211
  },
  {
    "Id": "3508796",
    "Code": "DO",
    "languages": "es-DO",
    "Name_EN": "Dominican Republic",
    "Name_FA": "جمهوری دومینیکن",
    "Name_AR": "الجمهورية الدومينيكية",
    "PhoneCode": "+1-809 and 1-829",
    "Latitude": 18.937768215962446,
    "Longitude": -70.55576802816903
  },
  {
    "Id": "2589581",
    "Code": "DZ",
    "languages": "ar-DZ",
    "Name_EN": "Algeria",
    "Name_FA": "الجزایر",
    "Name_AR": "الجزاير",
    "PhoneCode": "213",
    "Latitude": 34.823362225433556,
    "Longitude": 3.265072976878614
  },
  {
    "Id": "3658394",
    "Code": "EC",
    "languages": "es-EC",
    "Name_EN": "Ecuador",
    "Name_FA": "اکوادور",
    "Name_AR": "اكوادور",
    "PhoneCode": "593",
    "Latitude": -1.4764394629629634,
    "Longitude": -79.10937299999995
  },
  {
    "Id": "453733",
    "Code": "EE",
    "languages": "et,ru",
    "Name_EN": "Estonia",
    "Name_FA": "استونی",
    "Name_AR": "استونيا",
    "PhoneCode": "372",
    "Latitude": 58.80480088082902,
    "Longitude": 25.520848860103612
  },
  {
    "Id": "357994",
    "Code": "EG",
    "languages": "ar-EG,en,fr",
    "Name_EN": "Egypt",
    "Name_FA": "مصر",
    "Name_AR": "مصر",
    "PhoneCode": "20",
    "Latitude": 29.33954872950821,
    "Longitude": 31.414191885245902
  },
  {
    "Id": "2461445",
    "Code": "EH",
    "languages": "ar,mey",
    "Name_EN": "Western Sahara",
    "Name_FA": "صحرای غربی",
    "Name_AR": "لصحراء الغربية",
    "PhoneCode": "212",
    "Latitude": 0,
    "Longitude": 0
  },
  {
    "Id": "338010",
    "Code": "ER",
    "languages": "aa-ER,ar,tig,kun,ti-ER",
    "Name_EN": "Eritrea",
    "Name_FA": "اریتره",
    "Name_AR": "ارتيريا",
    "PhoneCode": "291",
    "Latitude": 14.96109625,
    "Longitude": 38.96868375
  },
  {
    "Id": "2510769",
    "Code": "ES",
    "languages": "es-ES,ca,gl,eu,oc",
    "Name_EN": "Spain",
    "Name_FA": "اسپانیا",
    "Name_AR": "اسبانيا",
    "PhoneCode": "34",
    "Latitude": 40.54004931996767,
    "Longitude": -3.2234744920075964
  },
  {
    "Id": "337996",
    "Code": "ET",
    "languages": "am,en-ET,om-ET,ti-ET,so-ET,sid",
    "Name_EN": "Ethiopia",
    "Name_FA": "اتیوپی",
    "Name_AR": "اثيوبيا",
    "PhoneCode": "251",
    "Latitude": 9.15110309236947,
    "Longitude": 38.904412570281124
  },
  {
    "Id": "660013",
    "Code": "FI",
    "languages": "fi-FI,sv-FI,smn",
    "Name_EN": "Finland",
    "Name_FA": "فنلاند",
    "Name_AR": "فنلندا",
    "PhoneCode": "358",
    "Latitude": 61.77545488636355,
    "Longitude": 24.865790045454535
  },
  {
    "Id": "2205218",
    "Code": "FJ",
    "languages": "en-FJ,fj",
    "Name_EN": "Fiji",
    "Name_FA": "فیجی",
    "Name_AR": "فيجي",
    "PhoneCode": "679",
    "Latitude": -17.254105,
    "Longitude": 142.390494
  },
  {
    "Id": "3474414",
    "Code": "FK",
    "languages": "en-FK",
    "Name_EN": "Falkland Islands",
    "Name_FA": "جزایر فالکلند",
    "Name_AR": "جزر فوكلاند",
    "PhoneCode": "500",
    "Latitude": 0,
    "Longitude": 0
  },
  {
    "Id": "2081918",
    "Code": "FM",
    "languages": "en-FM,chk,pon,yap,kos,uli,woe,nkr,kpg",
    "Name_EN": "Micronesia",
    "Name_FA": "میکرونزی",
    "Name_AR": "ميكرونيزيا",
    "PhoneCode": "691",
    "Latitude": 6.912560000000004,
    "Longitude": 151.78544081967215
  },
  {
    "Id": "2622320",
    "Code": "FO",
    "languages": "fo,da-FO",
    "Name_EN": "Faroe Islands",
    "Name_FA": "جزایر فارو",
    "Name_AR": "جزر فارو",
    "PhoneCode": "298",
    "Latitude": 62.01028171428572,
    "Longitude": -6.8185519999999995
  },
  {
    "Id": "3017382",
    "Code": "FR",
    "languages": "fr-FR,frp,br,co,ca,eu,oc",
    "Name_EN": "France",
    "Name_FA": "فرانسه",
    "Name_AR": "فرنسا",
    "PhoneCode": "33",
    "Latitude": 47.03931082723468,
    "Longitude": 2.4863223575535653
  },
  {
    "Id": "2400553",
    "Code": "GA",
    "languages": "fr-GA",
    "Name_EN": "Gabon",
    "Name_FA": "گابون",
    "Name_AR": "غابون",
    "PhoneCode": "241",
    "Latitude": -0.8140914583333331,
    "Longitude": 11.729224375000001
  },
  {
    "Id": "2635167",
    "Code": "GB",
    "languages": "en-GB,cy-GB,gd",
    "Name_EN": "United Kingdom",
    "Name_FA": "بریتانیا",
    "Name_AR": "المملكة المتحدة",
    "PhoneCode": "44",
    "Latitude": 52.833646890742116,
    "Longitude": -1.8117824200136154
  },
  {
    "Id": "3580239",
    "Code": "GD",
    "languages": "en-GD",
    "Name_EN": "Grenada",
    "Name_FA": "گرانادا",
    "Name_AR": "غرينادا",
    "PhoneCode": "+1-473",
    "Latitude": 12.177867,
    "Longitude": -61.655746
  },
  {
    "Id": "614540",
    "Code": "GE",
    "languages": "ka,ru,hy,az",
    "Name_EN": "Georgia",
    "Name_FA": "گرجستان",
    "Name_AR": "جورجيا",
    "PhoneCode": "995",
    "Latitude": 42.09440845588236,
    "Longitude": 43.20004874999999
  },
  {
    "Id": "3381670",
    "Code": "GF",
    "languages": "fr-GF",
    "Name_EN": "French Guiana",
    "Name_FA": "گویان فرانسه",
    "Name_AR": "غويانا الفرنسية",
    "PhoneCode": "594",
    "Latitude": 4.821509473684211,
    "Longitude": -52.943224736842105
  },
  {
    "Id": "3042362",
    "Code": "GG",
    "languages": "en,nrf",
    "Name_EN": "Guernsey",
    "Name_FA": "گرنزی",
    "Name_AR": "غيرنزي",
    "PhoneCode": "+44-1481",
    "Latitude": 49.48725625,
    "Longitude": -2.53589
  },
  {
    "Id": "2300660",
    "Code": "GH",
    "languages": "en-GH,ak,ee,tw",
    "Name_EN": "Ghana",
    "Name_FA": "غنا",
    "Name_AR": "غانا",
    "PhoneCode": "233",
    "Latitude": 6.6730710526315775,
    "Longitude": -0.9914010526315792
  },
  {
    "Id": "2411586",
    "Code": "GI",
    "languages": "en-GI,es,it,pt",
    "Name_EN": "Gibraltar",
    "Name_FA": "جبل طارق",
    "Name_AR": "مستعمرة جبل طارق",
    "PhoneCode": "350",
    "Latitude": 0,
    "Longitude": 0
  },
  {
    "Id": "3425505",
    "Code": "GL",
    "languages": "kl,da-GL,en",
    "Name_EN": "Greenland",
    "Name_FA": "گروينلند",
    "Name_AR": "غرينلاند",
    "PhoneCode": "299",
    "Latitude": 66.58615529411766,
    "Longitude": -51.15264647058823
  },
  {
    "Id": "2413451",
    "Code": "GM",
    "languages": "en-GM,mnk,wof,wo,ff",
    "Name_EN": "Gambia",
    "Name_FA": "گامبیا",
    "Name_AR": "غامبيا",
    "PhoneCode": "220",
    "Latitude": 13.439002500000003,
    "Longitude": -15.53800656976745
  },
  {
    "Id": "2420477",
    "Code": "GN",
    "languages": "fr-GN",
    "Name_EN": "Guinea",
    "Name_FA": "گینه",
    "Name_AR": "غينيا",
    "PhoneCode": "224",
    "Latitude": 10.590740597014921,
    "Longitude": -11.121414328358208
  },
  {
    "Id": "3579143",
    "Code": "GP",
    "languages": "fr-GP",
    "Name_EN": "Guadeloupe",
    "Name_FA": "گوادلوپ",
    "Name_AR": "غوادلوب",
    "PhoneCode": "590",
    "Latitude": 16.1749512,
    "Longitude": -61.5600432
  },
  {
    "Id": "2309096",
    "Code": "GQ",
    "languages": "es-GQ,fr,pt",
    "Name_EN": "Equatorial Guinea",
    "Name_FA": "گینه استوایی",
    "Name_AR": "غينيا الاستوايية",
    "PhoneCode": "240",
    "Latitude": 1.86733037037037,
    "Longitude": 9.743048148148148
  },
  {
    "Id": "390903",
    "Code": "GR",
    "languages": "el-GR,en,fr",
    "Name_EN": "Greece",
    "Name_FA": "یونان",
    "Name_AR": "اليونان",
    "PhoneCode": "30",
    "Latitude": 38.99070468347918,
    "Longitude": 23.006110483787964
  },
  {
    "Id": "3474415",
    "Code": "GS",
    "languages": "en",
    "Name_EN": "South Georgia and the South Sandwich Islands",
    "Name_FA": "جورجیای جنوبی و جزایر ساندویچ جنوبی",
    "Name_AR": "جورجيا الجنوبية وجزر ساندويتش الجنوبية",
    "PhoneCode": "",
    "Latitude": 0,
    "Longitude": 0
  },
  {
    "Id": "3595528",
    "Code": "GT",
    "languages": "es-GT",
    "Name_EN": "Guatemala",
    "Name_FA": "گواتمالا",
    "Name_AR": "غواتيمالا",
    "PhoneCode": "502",
    "Latitude": 14.919332529411767,
    "Longitude": -90.85062391176469
  },
  {
    "Id": "4043988",
    "Code": "GU",
    "languages": "en-GU,ch-GU",
    "Name_EN": "Guam",
    "Name_FA": "گوام",
    "Name_AR": "غوام",
    "PhoneCode": "+1-671",
    "Latitude": 13.445444814814818,
    "Longitude": 144.76248111111113
  },
  {
    "Id": "2372248",
    "Code": "GW",
    "languages": "pt-GW,pov",
    "Name_EN": "Guinea-Bissau",
    "Name_FA": "گینه بیسايو",
    "Name_AR": "غينيا بيساو",
    "PhoneCode": "245",
    "Latitude": 12.003512903225804,
    "Longitude": -15.275944193548387
  },
  {
    "Id": "3378535",
    "Code": "GY",
    "languages": "en-GY",
    "Name_EN": "Guyana",
    "Name_FA": "گویان",
    "Name_AR": "غوايانا",
    "PhoneCode": "592",
    "Latitude": 6.356371875000001,
    "Longitude": -58.273171874999996
  },
  {
    "Id": "1819730",
    "Code": "HK",
    "languages": "zh-HK,yue,zh,en",
    "Name_EN": "Hong Kong",
    "Name_FA": "هنگ‌کنگ",
    "Name_AR": "هونغ كونغ",
    "PhoneCode": "852",
    "Latitude": 22.324835781249995,
    "Longitude": 114.16515625000002
  },
  {
    "Id": "1547314",
    "Code": "HM",
    "languages": "",
    "Name_EN": "Heard Island and McDonald Islands",
    "Name_FA": "هرد و جزایر مک‌دونالد",
    "Name_AR": "جزيرة هيرد وجزر ماكدونالد",
    "PhoneCode": " ",
    "Latitude": 0,
    "Longitude": 0
  },
  {
    "Id": "3608932",
    "Code": "HN",
    "languages": "es-HN,cab,miq",
    "Name_EN": "Honduras",
    "Name_FA": "هندوراس",
    "Name_AR": "هندوراس",
    "PhoneCode": "504",
    "Latitude": 14.81407601593626,
    "Longitude": -87.51777882470122
  },
  {
    "Id": "3202326",
    "Code": "HR",
    "languages": "hr-HR,sr",
    "Name_EN": "Croatia",
    "Name_FA": "کرواسی",
    "Name_AR": "كرواتيا",
    "PhoneCode": "385",
    "Latitude": 45.21500726748971,
    "Longitude": 16.442223514403278
  },
  {
    "Id": "3723988",
    "Code": "HT",
    "languages": "ht,fr-HT",
    "Name_EN": "Haiti",
    "Name_FA": "هاییتی",
    "Name_AR": "هايتي",
    "PhoneCode": "509",
    "Latitude": 18.988022110091745,
    "Longitude": -72.75295504587156
  },
  {
    "Id": "719819",
    "Code": "HU",
    "languages": "hu-HU",
    "Name_EN": "Hungary",
    "Name_FA": "مجارستان",
    "Name_AR": "هنغاريا",
    "PhoneCode": "36",
    "Latitude": 47.307347069999985,
    "Longitude": 19.52630894999999
  },
  {
    "Id": "1643084",
    "Code": "ID",
    "languages": "id,en,nl,jv",
    "Name_EN": "Indonesia",
    "Name_FA": "اندونزی",
    "Name_AR": "اندونيسيا",
    "PhoneCode": "62",
    "Latitude": -6.8687891547324265,
    "Longitude": 112.92477875847923
  },
  {
    "Id": "2963597",
    "Code": "IE",
    "languages": "en-IE,ga-IE",
    "Name_EN": "Ireland",
    "Name_FA": "ایرلند",
    "Name_AR": "ايرلندا",
    "PhoneCode": "353",
    "Latitude": 53.14510567375888,
    "Longitude": -7.583809858156023
  },
  {
    "Id": "294640",
    "Code": "IL",
    "languages": "he,ar-IL,en-IL,",
    "Name_EN": "Israel",
    "Name_FA": "اسرايیل",
    "Name_AR": "اسراييل",
    "PhoneCode": "972",
    "Latitude": 32.25933069503546,
    "Longitude": 35.05210236879432
  },
  {
    "Id": "3042225",
    "Code": "IM",
    "languages": "en,gv",
    "Name_EN": "Isle of Man",
    "Name_FA": "جزیره من",
    "Name_AR": "جزيرة مان",
    "PhoneCode": "+44-1624",
    "Latitude": 54.21525333333333,
    "Longitude": -4.544826666666667
  },
  {
    "Id": "1269750",
    "Code": "IN",
    "languages": "en-IN,hi,bn,te,mr,ta,ur,gu,kn,ml,or,pa,as,bh,sat,ks,ne,sd,kok,doi,mni,sit,sa,fr,lus,inc",
    "Name_EN": "India",
    "Name_FA": "هند",
    "Name_AR": "الهند",
    "PhoneCode": "91",
    "Latitude": 21.224809481546476,
    "Longitude": 79.14080616695942
  },
  {
    "Id": "1282588",
    "Code": "IO",
    "languages": "en-IO",
    "Name_EN": "British Indian Ocean Territory",
    "Name_FA": "مستعمره‌های بریتانیا در اقیانوس هند",
    "Name_AR": "الاقليم البريطاني في المحيط الهندي",
    "PhoneCode": "246",
    "Latitude": 0,
    "Longitude": 0
  },
  {
    "Id": "99237",
    "Code": "IQ",
    "languages": "ar-IQ,ku,hy",
    "Name_EN": "Iraq",
    "Name_FA": "عراق",
    "Name_AR": "العراق",
    "PhoneCode": "964",
    "Latitude": 34.24859562091502,
    "Longitude": 44.55443496732027
  },
  {
    "Id": "130758",
    "Code": "IR",
    "languages": "fa-IR,ku",
    "Name_EN": "Iran",
    "Name_FA": "ایران",
    "Name_AR": "ايران",
    "PhoneCode": "98",
    "Latitude": 33.49114238351255,
    "Longitude": 51.914067777777774
  },
  {
    "Id": "2629691",
    "Code": "IS",
    "languages": "is,en,de,da,sv,no",
    "Name_EN": "Iceland",
    "Name_FA": "ایسلند",
    "Name_AR": "ايسلندا",
    "PhoneCode": "354",
    "Latitude": 64.70910940000003,
    "Longitude": -20.189125799999996
  },
  {
    "Id": "3175395",
    "Code": "IT",
    "languages": "it-IT,de-IT,fr-IT,sc,ca,co,sl",
    "Name_EN": "Italy",
    "Name_FA": "ایتالیا",
    "Name_AR": "ايطاليا",
    "PhoneCode": "39",
    "Latitude": 43.43820874489786,
    "Longitude": 11.686700782312927
  },
  {
    "Id": "3042142",
    "Code": "JE",
    "languages": "en,fr,nrf",
    "Name_EN": "Jersey",
    "Name_FA": "جرزی",
    "Name_AR": "جيرسي",
    "PhoneCode": "+44-1534",
    "Latitude": 49.208977499999996,
    "Longitude": -2.099505
  },
  {
    "Id": "3489940",
    "Code": "JM",
    "languages": "en-JM",
    "Name_EN": "Jamaica",
    "Name_FA": "جامايیکا",
    "Name_AR": "جامايكا",
    "PhoneCode": "+1-876",
    "Latitude": 18.142139052631585,
    "Longitude": -77.23365599999997
  },
  {
    "Id": "248816",
    "Code": "JO",
    "languages": "ar-JO,en",
    "Name_EN": "Jordan",
    "Name_FA": "اردن",
    "Name_AR": "الاردن",
    "PhoneCode": "962",
    "Latitude": 31.875835136986286,
    "Longitude": 35.89198438356165
  },
  {
    "Id": "1861060",
    "Code": "JP",
    "languages": "ja",
    "Name_EN": "Japan",
    "Name_FA": "ژاپن",
    "Name_AR": "اليابان",
    "PhoneCode": "81",
    "Latitude": 35.89905801293893,
    "Longitude": 137.11904026340088
  },
  {
    "Id": "192950",
    "Code": "KE",
    "languages": "en-KE,sw-KE",
    "Name_EN": "Kenya",
    "Name_FA": "کنیا",
    "Name_AR": "كينيا",
    "PhoneCode": "254",
    "Latitude": -0.5908201219512195,
    "Longitude": 36.70273841463418
  },
  {
    "Id": "1527747",
    "Code": "KG",
    "languages": "ky,uz,ru",
    "Name_EN": "Kyrgyzstan",
    "Name_FA": "قرقیزستان",
    "Name_AR": "قيرغيزستان",
    "PhoneCode": "996",
    "Latitude": 41.21140344827586,
    "Longitude": 73.02598103448278
  },
  {
    "Id": "1831722",
    "Code": "KH",
    "languages": "km,fr,en",
    "Name_EN": "Cambodia",
    "Name_FA": "کامبوج",
    "Name_AR": "كمبوديا",
    "PhoneCode": "855",
    "Latitude": 12.548623089887636,
    "Longitude": 105.05526134831463
  },
  {
    "Id": "4030945",
    "Code": "KI",
    "languages": "en-KI,gil",
    "Name_EN": "Kiribati",
    "Name_FA": "کیریباتی",
    "Name_AR": "كيريباتي",
    "PhoneCode": "686",
    "Latitude": 0.9682410810810809,
    "Longitude": 128.89527054054054
  },
  {
    "Id": "921929",
    "Code": "KM",
    "languages": "ar,fr-KM",
    "Name_EN": "Comoros",
    "Name_FA": "کومورو",
    "Name_AR": "جزر القمر",
    "PhoneCode": "269",
    "Latitude": -11.937582735042731,
    "Longitude": 43.785281452991434
  },
  {
    "Id": "3575174",
    "Code": "KN",
    "languages": "en-KN",
    "Name_EN": "Saint Kitts and Nevis",
    "Name_FA": "سنت کیتس و نویس",
    "Name_AR": "سانت كيتس ونيفيس",
    "PhoneCode": "+1-869",
    "Latitude": 17.29555888888889,
    "Longitude": -62.730062777777775
  },
  {
    "Id": "1873107",
    "Code": "KP",
    "languages": "ko-KP",
    "Name_EN": "North Korea",
    "Name_FA": "کره شمالی",
    "Name_AR": "كوريا الشمالية",
    "PhoneCode": "850",
    "Latitude": 40.132241652892546,
    "Longitude": 127.20309297520667
  },
  {
    "Id": "1835841",
    "Code": "KR",
    "languages": "ko-KR,en",
    "Name_EN": "South Korea",
    "Name_FA": "کره جنوبی",
    "Name_AR": "كوريا الجنوبية",
    "PhoneCode": "82",
    "Latitude": 36.14664503333331,
    "Longitude": 127.45405239999992
  },
  {
    "Id": "831053",
    "Code": "XK",
    "languages": "sq,sr",
    "Name_EN": "Kosovo",
    "Name_FA": "کوزوو",
    "Name_AR": "كوسوفو",
    "PhoneCode": "",
    "Latitude": 42.52678,
    "Longitude": 20.762869545454546
  },
  {
    "Id": "285570",
    "Code": "KW",
    "languages": "ar-KW,en",
    "Name_EN": "Kuwait",
    "Name_FA": "کویت",
    "Name_AR": "الكويت",
    "PhoneCode": "965",
    "Latitude": 29.262330714285703,
    "Longitude": 48.03288928571429
  },
  {
    "Id": "3580718",
    "Code": "KY",
    "languages": "en-KY",
    "Name_EN": "Cayman Islands",
    "Name_FA": "جزایر کیمن",
    "Name_AR": "جزر الكايمن",
    "PhoneCode": "+1-345",
    "Latitude": 19.376268333333336,
    "Longitude": -81.076065
  },
  {
    "Id": "1522867",
    "Code": "KZ",
    "languages": "kk,ru",
    "Name_EN": "Kazakhstan",
    "Name_FA": "قزاقستان",
    "Name_AR": "كازاخستان",
    "PhoneCode": "7",
    "Latitude": 48.395103109756135,
    "Longitude": 69.08896158536581
  },
  {
    "Id": "1655842",
    "Code": "LA",
    "languages": "lo,fr,en",
    "Name_EN": "Laos",
    "Name_FA": "لايوس",
    "Name_AR": "لاوس",
    "PhoneCode": "856",
    "Latitude": 18.06226232142857,
    "Longitude": 104.05016964285714
  },
  {
    "Id": "272103",
    "Code": "LB",
    "languages": "ar-LB,fr-LB,en,hy",
    "Name_EN": "Lebanon",
    "Name_FA": "لبنان",
    "Name_AR": "لبنان",
    "PhoneCode": "961",
    "Latitude": 33.75954619047619,
    "Longitude": 35.642190238095225
  },
  {
    "Id": "3576468",
    "Code": "LC",
    "languages": "en-LC",
    "Name_EN": "Saint Lucia",
    "Name_FA": "سنت لوسیا",
    "Name_AR": "سانت لوسيا",
    "PhoneCode": "+1-758",
    "Latitude": 13.923972105263159,
    "Longitude": -60.96326921052631
  },
  {
    "Id": "3042058",
    "Code": "LI",
    "languages": "de-LI",
    "Name_EN": "Liechtenstein",
    "Name_FA": "لیختن‌اشتاین",
    "Name_AR": "ليختنشتاين",
    "PhoneCode": "423",
    "Latitude": 47.17506583333333,
    "Longitude": 9.528180833333336
  },
  {
    "Id": "1227603",
    "Code": "LK",
    "languages": "si,ta,en",
    "Name_EN": "Sri Lanka",
    "Name_FA": "سری‌لانکا",
    "Name_AR": "سري لانكا",
    "PhoneCode": "94",
    "Latitude": 7.163571265822785,
    "Longitude": 80.39957139240508
  },
  {
    "Id": "2275384",
    "Code": "LR",
    "languages": "en-LR",
    "Name_EN": "Liberia",
    "Name_FA": "لیبریا",
    "Name_AR": "ليبيريا",
    "PhoneCode": "231",
    "Latitude": 6.473215925925924,
    "Longitude": -9.261865185185188
  },
  {
    "Id": "932692",
    "Code": "LS",
    "languages": "en-LS,st,zu,xh",
    "Name_EN": "Lesotho",
    "Name_FA": "لسوتو",
    "Name_AR": "ليسوتو",
    "PhoneCode": "266",
    "Latitude": -29.549298285714283,
    "Longitude": 27.99637657142857
  },
  {
    "Id": "597427",
    "Code": "LT",
    "languages": "lt,ru,pl",
    "Name_EN": "Lithuania",
    "Name_FA": "لیتوانی",
    "Name_AR": "ليتوانيا",
    "PhoneCode": "370",
    "Latitude": 55.198368275862066,
    "Longitude": 23.872245724137926
  },
  {
    "Id": "2960313",
    "Code": "LU",
    "languages": "lb,de-LU,fr-LU",
    "Name_EN": "Luxembourg",
    "Name_FA": "لوکزامبورگ",
    "Name_AR": "لوكسومبرغ",
    "PhoneCode": "352",
    "Latitude": 49.68591153191489,
    "Longitude": 6.120418595744678
  },
  {
    "Id": "458258",
    "Code": "LV",
    "languages": "lv,ru,lt",
    "Name_EN": "Latvia",
    "Name_FA": "لتونی",
    "Name_AR": "لاتفيا",
    "PhoneCode": "371",
    "Latitude": 56.893665248226945,
    "Longitude": 24.484569432624113
  },
  {
    "Id": "2215636",
    "Code": "LY",
    "languages": "ar-LY,it,en",
    "Name_EN": "Libya",
    "Name_FA": "لیبی",
    "Name_AR": "ليبيا",
    "PhoneCode": "218",
    "Latitude": 30.866911680672256,
    "Longitude": 16.006016386554624
  },
  {
    "Id": "2542007",
    "Code": "MA",
    "languages": "ar-MA,ber,fr",
    "Name_EN": "Morocco",
    "Name_FA": "مراکش",
    "Name_AR": "المغرب",
    "PhoneCode": "212",
    "Latitude": 32.869048063157884,
    "Longitude": -6.349163347368419
  },
  {
    "Id": "2993457",
    "Code": "MC",
    "languages": "fr-MC,en,it",
    "Name_EN": "Monaco",
    "Name_FA": "موناکو",
    "Name_AR": "موناكو",
    "PhoneCode": "377",
    "Latitude": 43.737314999999995,
    "Longitude": 7.422895
  },
  {
    "Id": "617790",
    "Code": "MD",
    "languages": "ro,ru,gag,tr",
    "Name_EN": "Moldova",
    "Name_FA": "مولدووا",
    "Name_AR": "مولدوفا",
    "PhoneCode": "373",
    "Latitude": 47.14801549999999,
    "Longitude": 28.62465975
  },
  {
    "Id": "3194884",
    "Code": "ME",
    "languages": "sr,hu,bs,sq,hr,rom",
    "Name_EN": "Montenegro",
    "Name_FA": "مونته‌نگرو",
    "Name_AR": "الجبل الاسود",
    "PhoneCode": "382",
    "Latitude": 42.54623661290324,
    "Longitude": 19.140033709677418
  },
  {
    "Id": "3578421",
    "Code": "MF",
    "languages": "fr",
    "Name_EN": "Saint Martin",
    "Name_FA": "سنت مارتین",
    "Name_AR": "سان مارتن",
    "PhoneCode": "590",
    "Latitude": 0,
    "Longitude": 0
  },
  {
    "Id": "1062947",
    "Code": "MG",
    "languages": "fr-MG,mg",
    "Name_EN": "Madagascar",
    "Name_FA": "ماداگاسکار",
    "Name_AR": "مدغشقر",
    "PhoneCode": "261",
    "Latitude": -19.310384113475166,
    "Longitude": 47.320855673758885
  },
  {
    "Id": "2080185",
    "Code": "MH",
    "languages": "mh,en-MH",
    "Name_EN": "Marshall Islands",
    "Name_FA": "جزایر مارشال",
    "Name_AR": "جزر مارشال",
    "PhoneCode": "692",
    "Latitude": 8.343645833333333,
    "Longitude": 168.80331166666667
  },
  {
    "Id": "718075",
    "Code": "MK",
    "languages": "mk,sq,tr,rmm,sr",
    "Name_EN": "North Macedonia",
    "Name_FA": "مقدونیه",
    "Name_AR": "مقدونيا الشمالية",
    "PhoneCode": "389",
    "Latitude": 41.61150189655172,
    "Longitude": 21.49489217241379
  },
  {
    "Id": "2453866",
    "Code": "ML",
    "languages": "fr-ML,bm",
    "Name_EN": "Mali",
    "Name_FA": "مالی",
    "Name_AR": "مالي",
    "PhoneCode": "223",
    "Latitude": 14.008707325581392,
    "Longitude": -5.626859767441858
  },
  {
    "Id": "1327865",
    "Code": "MM",
    "languages": "my",
    "Name_EN": "Myanmar",
    "Name_FA": "میانمار",
    "Name_AR": "ميانمار (بورما)",
    "PhoneCode": "95",
    "Latitude": 19.15561319587628,
    "Longitude": 96.36512865979381
  },
  {
    "Id": "2029969",
    "Code": "MN",
    "languages": "mn,ru",
    "Name_EN": "Mongolia",
    "Name_FA": "مغولستان",
    "Name_AR": "منغوليا",
    "PhoneCode": "976",
    "Latitude": 47.47996588957055,
    "Longitude": 102.3862700306749
  },
  {
    "Id": "1821275",
    "Code": "MO",
    "languages": "zh,zh-MO,pt",
    "Name_EN": "Macao",
    "Name_FA": "ماکايو",
    "Name_AR": "ماكاو",
    "PhoneCode": "853",
    "Latitude": 22.137611999999997,
    "Longitude": 113.55955399999998
  },
  {
    "Id": "4041468",
    "Code": "MP",
    "languages": "fil,tl,zh,ch-MP,en-MP",
    "Name_EN": "Northern Mariana Islands",
    "Name_FA": "جزایر ماریانای شمالی",
    "Name_AR": "جزر ماريانا الشمالية",
    "PhoneCode": "+1-670",
    "Latitude": 15.1479375,
    "Longitude": 145.71242999999998
  },
  {
    "Id": "3570311",
    "Code": "MQ",
    "languages": "fr-MQ",
    "Name_EN": "Martinique",
    "Name_FA": "مارتینیک",
    "Name_AR": "جزر المارتينيك",
    "PhoneCode": "596",
    "Latitude": 14.662415909090909,
    "Longitude": -61.01204954545455
  },
  {
    "Id": "2378080",
    "Code": "MR",
    "languages": "ar-MR,fuc,snk,fr,mey,wo",
    "Name_EN": "Mauritania",
    "Name_FA": "موریتانی",
    "Name_AR": "موريتانيا",
    "PhoneCode": "222",
    "Latitude": 17.415744666666665,
    "Longitude": -12.488719600000005
  },
  {
    "Id": "3578097",
    "Code": "MS",
    "languages": "en-MS",
    "Name_EN": "Montserrat",
    "Name_FA": "مونت‌سرات",
    "Name_AR": "مونتسرات",
    "PhoneCode": "+1-664",
    "Latitude": 16.755405,
    "Longitude": -62.212066666666665
  },
  {
    "Id": "2562770",
    "Code": "MT",
    "languages": "mt,en-MT",
    "Name_EN": "Malta",
    "Name_FA": "مالت",
    "Name_AR": "مالطة",
    "PhoneCode": "356",
    "Latitude": 35.91881157142858,
    "Longitude": 14.427024999999999
  },
  {
    "Id": "934292",
    "Code": "MU",
    "languages": "en-MU,bho,fr",
    "Name_EN": "Mauritius",
    "Name_FA": "موریتیوس",
    "Name_AR": "موريشوس",
    "PhoneCode": "230",
    "Latitude": -20.097968053097343,
    "Longitude": 57.70364017699114
  },
  {
    "Id": "1282028",
    "Code": "MV",
    "languages": "dv,en",
    "Name_EN": "Maldives",
    "Name_FA": "مالدیو",
    "Name_AR": "مالديف",
    "PhoneCode": "960",
    "Latitude": 3.11852,
    "Longitude": 73.27604545454545
  },
  {
    "Id": "927384",
    "Code": "MW",
    "languages": "ny,yao,tum,swk",
    "Name_EN": "Malawi",
    "Name_FA": "مالاوی",
    "Name_AR": "ملاوي",
    "PhoneCode": "265",
    "Latitude": -14.049501315789472,
    "Longitude": 34.51627447368421
  },
  {
    "Id": "3996063",
    "Code": "MX",
    "languages": "es-MX",
    "Name_EN": "Mexico",
    "Name_FA": "مکزیک",
    "Name_AR": "المكسيك",
    "PhoneCode": "52",
    "Latitude": 20.07796719341855,
    "Longitude": -99.07860254320599
  },
  {
    "Id": "1733045",
    "Code": "MY",
    "languages": "ms-MY,en,zh,ta,te,ml,pa,th",
    "Name_EN": "Malaysia",
    "Name_FA": "مالزی",
    "Name_AR": "ماليزيا",
    "PhoneCode": "60",
    "Latitude": 3.8411709276944097,
    "Longitude": 103.36645162346528
  },
  {
    "Id": "1036973",
    "Code": "MZ",
    "languages": "pt-MZ,vmw",
    "Name_EN": "Mozambique",
    "Name_FA": "موزامبیک",
    "Name_AR": "موزمبيق",
    "PhoneCode": "258",
    "Latitude": -18.898128494623656,
    "Longitude": 35.75264483870968
  },
  {
    "Id": "3355338",
    "Code": "NA",
    "languages": "en-NA,af,de,hz,naq",
    "Name_EN": "Namibia",
    "Name_FA": "نامیبیا",
    "Name_AR": "ناميبيا",
    "PhoneCode": "264",
    "Latitude": -21.557070666666668,
    "Longitude": 17.17305022222223
  },
  {
    "Id": "2139685",
    "Code": "NC",
    "languages": "fr-NC",
    "Name_EN": "New Caledonia",
    "Name_FA": "کالدونیای جدید",
    "Name_AR": "كاليدونيا الجديدة",
    "PhoneCode": "687",
    "Latitude": -21.248824666666664,
    "Longitude": 165.58590133333334
  },
  {
    "Id": "2440476",
    "Code": "NE",
    "languages": "fr-NE,ha,kr,dje",
    "Name_EN": "Niger",
    "Name_FA": "نیجر",
    "Name_AR": "النيجر",
    "PhoneCode": "227",
    "Latitude": 14.405636714285718,
    "Longitude": 6.376251999999998
  },
  {
    "Id": "2155115",
    "Code": "NF",
    "languages": "en-NF",
    "Name_EN": "Norfolk Island",
    "Name_FA": "جزیره نورفولک",
    "Name_AR": "جزيرة نورفولك",
    "PhoneCode": "672",
    "Latitude": 0,
    "Longitude": 0
  },
  {
    "Id": "2328926",
    "Code": "NG",
    "languages": "en-NG,ha,yo,ig,ff",
    "Name_EN": "Nigeria",
    "Name_FA": "نیجریه",
    "Name_AR": "نيجيريا",
    "PhoneCode": "234",
    "Latitude": 8.76249315502183,
    "Longitude": 7.419853984716162
  },
  {
    "Id": "3617476",
    "Code": "NI",
    "languages": "es-NI,en",
    "Name_EN": "Nicaragua",
    "Name_FA": "نیکاراگويه",
    "Name_AR": "نيكاراغوا",
    "PhoneCode": "505",
    "Latitude": 12.584272891566266,
    "Longitude": -85.87845843373493
  },
  {
    "Id": "2750405",
    "Code": "NL",
    "languages": "nl-NL,fy-NL",
    "Name_EN": "The Netherlands",
    "Name_FA": "هلند",
    "Name_AR": "هولندا",
    "PhoneCode": "31",
    "Latitude": 52.095564306956966,
    "Longitude": 5.5228488263409465
  },
  {
    "Id": "3144096",
    "Code": "NO",
    "languages": "no,nb,nn,se,fi",
    "Name_EN": "Norway",
    "Name_FA": "نروژ",
    "Name_AR": "النرويج",
    "PhoneCode": "47",
    "Latitude": 61.91649443535187,
    "Longitude": 10.211632815057273
  },
  {
    "Id": "1282988",
    "Code": "NP",
    "languages": "ne,en",
    "Name_EN": "Nepal",
    "Name_FA": "نپال",
    "Name_AR": "النيبال",
    "PhoneCode": "977",
    "Latitude": 27.957627749999993,
    "Longitude": 84.21525212499998
  },
  {
    "Id": "2110425",
    "Code": "NR",
    "languages": "na,en-NR",
    "Name_EN": "Nauru",
    "Name_FA": "نايورو",
    "Name_AR": "ناورو",
    "PhoneCode": "674",
    "Latitude": -0.5275545454545455,
    "Longitude": 166.9308790909091
  },
  {
    "Id": "4036232",
    "Code": "NU",
    "languages": "niu,en-NU",
    "Name_EN": "Niue",
    "Name_FA": "نیووی",
    "Name_AR": "نيوي",
    "PhoneCode": "683",
    "Latitude": 0,
    "Longitude": 0
  },
  {
    "Id": "2186224",
    "Code": "NZ",
    "languages": "en-NZ,mi",
    "Name_EN": "New Zealand",
    "Name_FA": "زلاند نو",
    "Name_AR": "زيلندا الجديدة",
    "PhoneCode": "64",
    "Latitude": -40.450039144827564,
    "Longitude": 173.36659155862094
  },
  {
    "Id": "286963",
    "Code": "OM",
    "languages": "ar-OM,en,bal,ur",
    "Name_EN": "Oman",
    "Name_FA": "عمان",
    "Name_AR": "عمان",
    "PhoneCode": "968",
    "Latitude": 23.19397125,
    "Longitude": 57.09700593749999
  },
  {
    "Id": "3703430",
    "Code": "PA",
    "languages": "es-PA,en",
    "Name_EN": "Panama",
    "Name_FA": "پاناما",
    "Name_AR": "بنما",
    "PhoneCode": "507",
    "Latitude": 8.482803358302123,
    "Longitude": -80.72841304619224
  },
  {
    "Id": "3932488",
    "Code": "PE",
    "languages": "es-PE,qu,ay",
    "Name_EN": "Peru",
    "Name_FA": "پرو",
    "Name_AR": "بيرو",
    "PhoneCode": "51",
    "Latitude": -10.681197965796569,
    "Longitude": -75.57869944644477
  },
  {
    "Id": "4030656",
    "Code": "PF",
    "languages": "fr-PF,ty",
    "Name_EN": "French Polynesia",
    "Name_FA": "پلی‌نزی فرانسه",
    "Name_AR": "بولينسيا الفرنسية",
    "PhoneCode": "689",
    "Latitude": -17.462016750000007,
    "Longitude": -148.846573
  },
  {
    "Id": "2088628",
    "Code": "PG",
    "languages": "en-PG,ho,meu,tpi",
    "Name_EN": "Papua New Guinea",
    "Name_FA": "پاپوا گینه نو",
    "Name_AR": "بابوا غينيا الجديدة",
    "PhoneCode": "675",
    "Latitude": -6.215465652173913,
    "Longitude": 146.81385456521738
  },
  {
    "Id": "1694008",
    "Code": "PH",
    "languages": "tl,en-PH,fil,ceb,ilo,hil,war,pam,bik,bcl,pag,mrw,tsg,mdh,cbk,krj,sgd,msb,akl,ibg,yka,mta,abx",
    "Name_EN": "Philippines",
    "Name_FA": "فیلیپین",
    "Name_AR": "الفيلبين",
    "PhoneCode": "63",
    "Latitude": 11.897900765136443,
    "Longitude": 122.73305591483725
  },
  {
    "Id": "1168579",
    "Code": "PK",
    "languages": "ur-PK,en-PK,pa,sd,ps,brh",
    "Name_EN": "Pakistan",
    "Name_FA": "پاکستان",
    "Name_AR": "الباكستان",
    "PhoneCode": "92",
    "Latitude": 30.356414357976693,
    "Longitude": 71.19130529182877
  },
  {
    "Id": "798544",
    "Code": "PL",
    "languages": "pl",
    "Name_EN": "Poland",
    "Name_FA": "لهستان",
    "Name_AR": "بولندا",
    "PhoneCode": "48",
    "Latitude": 51.47803555555558,
    "Longitude": 19.464978623707257
  },
  {
    "Id": "3424932",
    "Code": "PM",
    "languages": "fr-PM",
    "Name_EN": "Saint Pierre and Miquelon",
    "Name_FA": "سن پیر و میکلن",
    "Name_AR": "سان بيير ومكويلون",
    "PhoneCode": "508",
    "Latitude": 46.93832,
    "Longitude": -56.279345000000006
  },
  {
    "Id": "4030699",
    "Code": "PN",
    "languages": "en-PN",
    "Name_EN": "Pitcairn",
    "Name_FA": "جزایر پیت‌کرن",
    "Name_AR": "جزر بيتكيرن",
    "PhoneCode": "870",
    "Latitude": 0,
    "Longitude": 0
  },
  {
    "Id": "4566966",
    "Code": "PR",
    "languages": "en-PR,es-PR",
    "Name_EN": "Puerto Rico",
    "Name_FA": "پورتوریکو",
    "Name_AR": "بورتوريكو",
    "PhoneCode": "+1-787 and 1-939",
    "Latitude": 18.23215762114539,
    "Longitude": -66.38449242290746
  },
  {
    "Id": "6254930",
    "Code": "PS",
    "languages": "ar-PS",
    "Name_EN": "Palestinian Territory",
    "Name_FA": "فلسطین",
    "Name_AR": "فلسطين",
    "PhoneCode": "970",
    "Latitude": 31.972410479452073,
    "Longitude": 35.13254280821917
  },
  {
    "Id": "2264397",
    "Code": "PT",
    "languages": "pt-PT,mwl",
    "Name_EN": "Portugal",
    "Name_FA": "پرتغال",
    "Name_AR": "البرتغال",
    "PhoneCode": "351",
    "Latitude": 39.557499190697634,
    "Longitude": -9.857579804651163
  },
  {
    "Id": "1559582",
    "Code": "PW",
    "languages": "pau,sov,en-PW,tox,ja,fil,zh",
    "Name_EN": "Palau",
    "Name_FA": "پالايو",
    "Name_AR": "بالاو",
    "PhoneCode": "680",
    "Latitude": 7.193863448275861,
    "Longitude": 134.31092827586207
  },
  {
    "Id": "3437598",
    "Code": "PY",
    "languages": "es-PY,gn",
    "Name_EN": "Paraguay",
    "Name_FA": "پاراگويه",
    "Name_AR": "باراغواي",
    "PhoneCode": "595",
    "Latitude": -25.314018047337274,
    "Longitude": -56.64957390532545
  },
  {
    "Id": "289688",
    "Code": "QA",
    "languages": "ar-QA,es",
    "Name_EN": "Qatar",
    "Name_FA": "قطر",
    "Name_AR": "قطر",
    "PhoneCode": "974",
    "Latitude": 25.37125214285714,
    "Longitude": 51.410175476190474
  },
  {
    "Id": "935317",
    "Code": "RE",
    "languages": "fr-RE",
    "Name_EN": "Reunion",
    "Name_FA": "ريونیون",
    "Name_AR": "روينيون",
    "PhoneCode": "262",
    "Latitude": -21.118899615384617,
    "Longitude": 55.49876153846154
  },
  {
    "Id": "798549",
    "Code": "RO",
    "languages": "ro,hu,rom",
    "Name_EN": "Romania",
    "Name_FA": "رومانی",
    "Name_AR": "رومانيا",
    "PhoneCode": "40",
    "Latitude": 45.83148139739846,
    "Longitude": 25.080516588334056
  },
  {
    "Id": "6290252",
    "Code": "RS",
    "languages": "sr,hu,bs,rom",
    "Name_EN": "Serbia",
    "Name_FA": "صربستان",
    "Name_AR": "جمهورية صربيا",
    "PhoneCode": "381",
    "Latitude": 44.686304783505136,
    "Longitude": 20.430826020618554
  },
  {
    "Id": "2017370",
    "Code": "RU",
    "languages": "ru,tt,xal,cau,ady,kv,ce,tyv,cv,udm,tut,mns,bua,myv,mdf,chm,ba,inh,kbd,krc,av,sah,nog",
    "Name_EN": "Russia",
    "Name_FA": "روسیه",
    "Name_AR": "روسيا",
    "PhoneCode": "7",
    "Latitude": 53.63450717129191,
    "Longitude": 57.66337086889953
  },
  {
    "Id": "49518",
    "Code": "RW",
    "languages": "rw,en-RW,fr-RW,sw",
    "Name_EN": "Rwanda",
    "Name_FA": "رواندا",
    "Name_AR": "رواندا",
    "PhoneCode": "250",
    "Latitude": -2.058743265306123,
    "Longitude": 29.62853734693878
  },
  {
    "Id": "102358",
    "Code": "SA",
    "languages": "ar-SA",
    "Name_EN": "Saudi Arabia",
    "Name_FA": "عربستان",
    "Name_AR": "العربية السعودية",
    "PhoneCode": "966",
    "Latitude": 24.296455496183206,
    "Longitude": 44.28676740458015
  },
  {
    "Id": "2103350",
    "Code": "SB",
    "languages": "en-SB,tpi",
    "Name_EN": "Solomon Islands",
    "Name_FA": "جزایر سلیمان",
    "Name_AR": "جزر سليمان",
    "PhoneCode": "677",
    "Latitude": -8.946591999999999,
    "Longitude": 159.833107
  },
  {
    "Id": "241170",
    "Code": "SC",
    "languages": "en-SC,fr-SC",
    "Name_EN": "Seychelles",
    "Name_FA": "سیشل",
    "Name_AR": "سيشل",
    "PhoneCode": "248",
    "Latitude": -4.63933888888889,
    "Longitude": 55.505827777777775
  },
  {
    "Id": "366755",
    "Code": "SD",
    "languages": "ar-SD,en,fia",
    "Name_EN": "Sudan",
    "Name_FA": "سودان",
    "Name_AR": "السودان",
    "PhoneCode": "249",
    "Latitude": 14.30993972972973,
    "Longitude": 31.451966756756743
  },
  {
    "Id": "7909807",
    "Code": "SS",
    "languages": "en",
    "Name_EN": "South Sudan",
    "Name_FA": "سودان جنوبی",
    "Name_AR": "جنوب السودان",
    "PhoneCode": "211",
    "Latitude": 6.998217391304347,
    "Longitude": 29.54268260869565
  },
  {
    "Id": "2661886",
    "Code": "SE",
    "languages": "sv-SE,se,sma,fi-SE",
    "Name_EN": "Sweden",
    "Name_FA": "سويد",
    "Name_AR": "السويد",
    "PhoneCode": "46",
    "Latitude": 59.09172280515538,
    "Longitude": 15.362072266868829
  },
  {
    "Id": "1880251",
    "Code": "SG",
    "languages": "cmn,en-SG,ms-SG,ta-SG,zh-SG",
    "Name_EN": "Singapore",
    "Name_FA": "سنگاپور",
    "Name_AR": "سنغافورة",
    "PhoneCode": "65",
    "Latitude": 0,
    "Longitude": 0
  },
  {
    "Id": "3370751",
    "Code": "SH",
    "languages": "en-SH",
    "Name_EN": "Saint Helena",
    "Name_FA": "سنت هلن",
    "Name_AR": "سانت هيلينا",
    "PhoneCode": "290",
    "Latitude": -18.12533,
    "Longitude": -8.261998333333333
  },
  {
    "Id": "3190538",
    "Code": "SI",
    "languages": "sl,sh",
    "Name_EN": "Slovenia",
    "Name_FA": "اسلوونی",
    "Name_AR": "سلوفينيا",
    "PhoneCode": "386",
    "Latitude": 46.214857953410984,
    "Longitude": 14.958898885191354
  },
  {
    "Id": "607072",
    "Code": "SJ",
    "languages": "no,ru",
    "Name_EN": "Svalbard and Jan Mayen",
    "Name_FA": "سوالبارد و یان ماین",
    "Name_AR": "سفالبارد وجان ماين",
    "PhoneCode": "47",
    "Latitude": 74.57272,
    "Longitude": 3.4640950000000004
  },
  {
    "Id": "3057568",
    "Code": "SK",
    "languages": "sk,hu",
    "Name_EN": "Slovakia",
    "Name_FA": "اسلواکی",
    "Name_AR": "سلوفاكيا",
    "PhoneCode": "421",
    "Latitude": 48.54412097035044,
    "Longitude": 18.58323159029651
  },
  {
    "Id": "2403846",
    "Code": "SL",
    "languages": "en-SL,men,tem",
    "Name_EN": "Sierra Leone",
    "Name_FA": "سیراليون",
    "Name_AR": "سيراليون",
    "PhoneCode": "232",
    "Latitude": 8.355948735632186,
    "Longitude": -11.7988324137931
  },
  {
    "Id": "3168068",
    "Code": "SM",
    "languages": "it-SM",
    "Name_EN": "San Marino",
    "Name_FA": "سان‌مارینو",
    "Name_AR": "سان مارينو",
    "PhoneCode": "378",
    "Latitude": 43.941906,
    "Longitude": 12.463310666666667
  },
  {
    "Id": "2245662",
    "Code": "SN",
    "languages": "fr-SN,wo,fuc,mnk",
    "Name_EN": "Senegal",
    "Name_FA": "سنگال",
    "Name_AR": "السنغال",
    "PhoneCode": "221",
    "Latitude": 14.54230730263158,
    "Longitude": -15.527376249999993
  },
  {
    "Id": "51537",
    "Code": "SO",
    "languages": "so-SO,ar-SO,it,en-SO",
    "Name_EN": "Somalia",
    "Name_FA": "سومالی",
    "Name_AR": "الصومال",
    "PhoneCode": "252",
    "Latitude": 5.919021029411765,
    "Longitude": 45.38829044117648
  },
  {
    "Id": "3382998",
    "Code": "SR",
    "languages": "nl-SR,en,srn,hns,jv",
    "Name_EN": "Suriname",
    "Name_FA": "سورینام",
    "Name_AR": "سورينام",
    "PhoneCode": "597",
    "Latitude": 5.528916,
    "Longitude": -55.266121999999996
  },
  {
    "Id": "2410758",
    "Code": "ST",
    "languages": "pt-ST",
    "Name_EN": "Sao Tome and Principe",
    "Name_FA": "سايوتومه و پرینسیپه",
    "Name_AR": "سان تومي وبرينسيبي",
    "PhoneCode": "239",
    "Latitude": 0.3342143902439024,
    "Longitude": 6.6867712195121936
  },
  {
    "Id": "3585968",
    "Code": "SV",
    "languages": "es-SV",
    "Name_EN": "El Salvador",
    "Name_FA": "السالوادور",
    "Name_AR": "السلفادور",
    "PhoneCode": "503",
    "Latitude": 13.692180792079203,
    "Longitude": -88.91955029702972
  },
  {
    "Id": "7609695",
    "Code": "SX",
    "languages": "nl,en",
    "Name_EN": "Sint Maarten",
    "Name_FA": "سنت مارتن",
    "Name_AR": "سنت مارتن",
    "PhoneCode": "599",
    "Latitude": 0,
    "Longitude": 0
  },
  {
    "Id": "163843",
    "Code": "SY",
    "languages": "ar-SY,ku,hy,arc,fr,en",
    "Name_EN": "Syria",
    "Name_FA": "سوریه",
    "Name_AR": "سورية",
    "PhoneCode": "963",
    "Latitude": 34.99217608843537,
    "Longitude": 37.10847942176872
  },
  {
    "Id": "934841",
    "Code": "SZ",
    "languages": "en-SZ,ss-SZ",
    "Name_EN": "Eswatini",
    "Name_FA": "سوازیلند",
    "Name_AR": "اسواتيني",
    "PhoneCode": "268",
    "Latitude": -26.496535909090912,
    "Longitude": 31.42037590909091
  },
  {
    "Id": "3576916",
    "Code": "TC",
    "languages": "en-TC",
    "Name_EN": "Turks and Caicos Islands",
    "Name_FA": "جزایر تورکس و کایکوس",
    "Name_AR": "جزر توركس وكايكوس",
    "PhoneCode": "+1-649",
    "Latitude": 0,
    "Longitude": 0
  },
  {
    "Id": "2434508",
    "Code": "TD",
    "languages": "fr-TD,ar-TD,sre",
    "Name_EN": "Chad",
    "Name_FA": "چاد",
    "Name_AR": "تشاد",
    "PhoneCode": "235",
    "Latitude": 11.989181971830984,
    "Longitude": 17.482733239436623
  },
  {
    "Id": "1546748",
    "Code": "TF",
    "languages": "fr",
    "Name_EN": "French Southern Territories",
    "Name_FA": "سرزمین‌های جنوب فرانسه",
    "Name_AR": "الاقاليم الجنوبية الفرنسية",
    "PhoneCode": "",
    "Latitude": -49.34916,
    "Longitude": 70.21937
  },
  {
    "Id": "2363686",
    "Code": "TG",
    "languages": "fr-TG,ee,hna,kbp,dag,ha",
    "Name_EN": "Togo",
    "Name_FA": "توگو",
    "Name_AR": "توغو",
    "PhoneCode": "228",
    "Latitude": 8.230226571428572,
    "Longitude": 0.9747420000000001
  },
  {
    "Id": "1605651",
    "Code": "TH",
    "languages": "th,en",
    "Name_EN": "Thailand",
    "Name_FA": "تایلند",
    "Name_AR": "تايلاند",
    "PhoneCode": "66",
    "Latitude": 14.29634268177527,
    "Longitude": 101.19984763928237
  },
  {
    "Id": "1220409",
    "Code": "TJ",
    "languages": "tg,ru",
    "Name_EN": "Tajikistan",
    "Name_FA": "تاجیکستان",
    "Name_AR": "تاجيكستان",
    "PhoneCode": "992",
    "Latitude": 38.77860505263159,
    "Longitude": 69.51034389473682
  },
  {
    "Id": "4031074",
    "Code": "TK",
    "languages": "tkl,en-TK",
    "Name_EN": "Tokelau",
    "Name_FA": "توکلايو",
    "Name_AR": "توكيلو",
    "PhoneCode": "690",
    "Latitude": -9.042576666666667,
    "Longitude": -171.87023333333332
  },
  {
    "Id": "1966436",
    "Code": "TL",
    "languages": "tet,pt-TL,id,en",
    "Name_EN": "Timor Leste",
    "Name_FA": "تیمور شرقی",
    "Name_AR": "تيمور الشرقية",
    "PhoneCode": "670",
    "Latitude": -8.729396315789476,
    "Longitude": 125.73485210526314
  },
  {
    "Id": "1218197",
    "Code": "TM",
    "languages": "tk,ru,uz",
    "Name_EN": "Turkmenistan",
    "Name_FA": "ترکمنستان",
    "Name_AR": "تركمانستان",
    "PhoneCode": "993",
    "Latitude": 38.84454083333333,
    "Longitude": 60.05642194444445
  },
  {
    "Id": "2464461",
    "Code": "TN",
    "languages": "ar-TN,fr",
    "Name_EN": "Tunisia",
    "Name_FA": "تونس",
    "Name_AR": "تونس",
    "PhoneCode": "216",
    "Latitude": 35.641607517482505,
    "Longitude": 10.019174475524476
  },
  {
    "Id": "4032283",
    "Code": "TO",
    "languages": "to,en-TO",
    "Name_EN": "Tonga",
    "Name_FA": "تونگا",
    "Name_AR": "تونغا",
    "PhoneCode": "676",
    "Latitude": -20.473272666666666,
    "Longitude": -174.8771373333333
  },
  {
    "Id": "298795",
    "Code": "TR",
    "languages": "tr-TR,ku,diq,az,av",
    "Name_EN": "Turkey",
    "Name_FA": "ترکیه",
    "Name_AR": "تركيا",
    "PhoneCode": "90",
    "Latitude": 38.655576292225184,
    "Longitude": 34.66331707506698
  },
  {
    "Id": "3573591",
    "Code": "TT",
    "languages": "en-TT,hns,fr,es,zh",
    "Name_EN": "Trinidad and Tobago",
    "Name_FA": "ترینیداد و توباگو",
    "Name_AR": "ترينيداد وتوباغو",
    "PhoneCode": "+1-868",
    "Latitude": 10.473992592592591,
    "Longitude": -61.39730962962964
  },
  {
    "Id": "2110297",
    "Code": "TV",
    "languages": "tvl,en,sm,gil",
    "Name_EN": "Tuvalu",
    "Name_FA": "تووالو",
    "Name_AR": "توفالو",
    "PhoneCode": "688",
    "Latitude": -7.812800833333331,
    "Longitude": 178.47160916666667
  },
  {
    "Id": "1668284",
    "Code": "TW",
    "languages": "zh-TW,zh,nan,hak",
    "Name_EN": "Taiwan",
    "Name_FA": "تایوان",
    "Name_AR": "تايوان",
    "PhoneCode": "886",
    "Latitude": 24.163561976744198,
    "Longitude": 120.66891895348839
  },
  {
    "Id": "149590",
    "Code": "TZ",
    "languages": "sw-TZ,en,ar",
    "Name_EN": "Tanzania",
    "Name_FA": "تانزانیا",
    "Name_AR": "تانزانيا",
    "PhoneCode": "255",
    "Latitude": -5.85813300940439,
    "Longitude": 35.54006542319751
  },
  {
    "Id": "690791",
    "Code": "UA",
    "languages": "uk,ru-UA,rom,pl,hu",
    "Name_EN": "Ukraine",
    "Name_FA": "اوکراین",
    "Name_AR": "اوكرانيا",
    "PhoneCode": "380",
    "Latitude": 47.75402040745849,
    "Longitude": 30.825555103591235
  },
  {
    "Id": "226074",
    "Code": "UG",
    "languages": "en-UG,lg,sw,ar",
    "Name_EN": "Uganda",
    "Name_FA": "اوگاندا",
    "Name_AR": "اوغندا",
    "PhoneCode": "256",
    "Latitude": 0.8065838095238095,
    "Longitude": 32.07567590476188
  },
  {
    "Id": "5854968",
    "Code": "UM",
    "languages": "en-UM",
    "Name_EN": "United States Minor Outlying Islands",
    "Name_FA": "جزایر دورافتاده ایالات متحده",
    "Name_AR": "جزر الولايات المتحدة النايية",
    "PhoneCode": "1",
    "Latitude": 0,
    "Longitude": 0
  },
  {
    "Id": "6252001",
    "Code": "US",
    "languages": "en-US,es-US,haw,fr",
    "Name_EN": "United States",
    "Name_FA": "ایالات متحده امریکا",
    "Name_AR": "الاولايات المتحدة الامريكية",
    "PhoneCode": "1",
    "Latitude": 38.55309931506852,
    "Longitude": -90.55750630367564
  },
  {
    "Id": "3439705",
    "Code": "UY",
    "languages": "es-UY",
    "Name_EN": "Uruguay",
    "Name_FA": "اوروگويه",
    "Name_AR": "اروغواي",
    "PhoneCode": "598",
    "Latitude": -33.48324627586205,
    "Longitude": -56.25152165517243
  },
  {
    "Id": "1512440",
    "Code": "UZ",
    "languages": "uz,ru,tg",
    "Name_EN": "Uzbekistan",
    "Name_FA": "ازبکستان",
    "Name_AR": "ازبكستان",
    "PhoneCode": "998",
    "Latitude": 40.59178912442397,
    "Longitude": 67.26450124423964
  },
  {
    "Id": "3164670",
    "Code": "VA",
    "languages": "la,it,fr",
    "Name_EN": "Vatican",
    "Name_FA": "واتیکان",
    "Name_AR": "الفاتيكان",
    "PhoneCode": "379",
    "Latitude": 0,
    "Longitude": 0
  },
  {
    "Id": "3577815",
    "Code": "VC",
    "languages": "en-VC,fr",
    "Name_EN": "Saint Vincent and the Grenadines",
    "Name_FA": "سنت وینسنت و گرنادین",
    "Name_AR": "سانت فنسنت وجزر غرينادين",
    "PhoneCode": "+1-784",
    "Latitude": 13.164722000000001,
    "Longitude": -61.200028999999994
  },
  {
    "Id": "3625428",
    "Code": "VE",
    "languages": "es-VE",
    "Name_EN": "Venezuela",
    "Name_FA": "ونزويلا",
    "Name_AR": "فنزويلا",
    "PhoneCode": "58",
    "Latitude": 9.394180439024389,
    "Longitude": -68.27690307317074
  },
  {
    "Id": "3577718",
    "Code": "VG",
    "languages": "en-VG",
    "Name_EN": "British Virgin Islands",
    "Name_FA": "جزایر ویرجین بریتانیا",
    "Name_AR": "جزر فيرجن البريطانية",
    "PhoneCode": "+1-284",
    "Latitude": 0,
    "Longitude": 0
  },
  {
    "Id": "4796775",
    "Code": "VI",
    "languages": "en-VI",
    "Name_EN": "U.S. Virgin Islands",
    "Name_FA": "جزایر ویرجین ایالات متحده",
    "Name_AR": "جزر فيرجن التابعة للولايات المتحدة",
    "PhoneCode": "+1-340",
    "Latitude": 18.078105714285716,
    "Longitude": -64.80835857142857
  },
  {
    "Id": "1562822",
    "Code": "VN",
    "languages": "vi,en,fr,zh,km",
    "Name_EN": "Vietnam",
    "Name_FA": "ویتنام",
    "Name_AR": "فيتنام",
    "PhoneCode": "84",
    "Latitude": 16.487119907284782,
    "Longitude": 106.33957164238419
  },
  {
    "Id": "2134431",
    "Code": "VU",
    "languages": "bi,en-VU,fr-VU",
    "Name_EN": "Vanuatu",
    "Name_FA": "وانواتو",
    "Name_AR": "فانواتو",
    "PhoneCode": "678",
    "Latitude": -16.208815,
    "Longitude": 167.754562
  },
  {
    "Id": "4034749",
    "Code": "WF",
    "languages": "wls,fud,fr-WF",
    "Name_EN": "Wallis and Futuna",
    "Name_FA": "والیس و فوتونا",
    "Name_AR": "والس وفوتونا",
    "PhoneCode": "681",
    "Latitude": -13.475250909090908,
    "Longitude": -176.53921363636366
  },
  {
    "Id": "4034894",
    "Code": "WS",
    "languages": "sm,en-WS",
    "Name_EN": "Samoa",
    "Name_FA": "ساموا",
    "Name_AR": "ساموا",
    "PhoneCode": "685",
    "Latitude": -13.776905434782611,
    "Longitude": -172.02487543478267
  },
  {
    "Id": "69543",
    "Code": "YE",
    "languages": "ar-YE",
    "Name_EN": "Yemen",
    "Name_FA": "یمن",
    "Name_AR": "اليمن",
    "PhoneCode": "967",
    "Latitude": 14.898358662420383,
    "Longitude": 45.158013343949044
  },
  {
    "Id": "1024031",
    "Code": "YT",
    "languages": "fr-YT",
    "Name_EN": "Mayotte",
    "Name_FA": "مایوت",
    "Name_AR": "مايوت",
    "PhoneCode": "262",
    "Latitude": -12.825679090909091,
    "Longitude": 45.15238803030303
  },
  {
    "Id": "953987",
    "Code": "ZA",
    "languages": "zu,xh,af,nso,en-ZA,tn,st,ts,ss,ve,nr",
    "Name_EN": "South Africa",
    "Name_FA": "افریقای جنوبی",
    "Name_AR": "جنوب افريقيا",
    "PhoneCode": "27",
    "Latitude": -29.006734095682614,
    "Longitude": 26.814841353558982
  },
  {
    "Id": "895949",
    "Code": "ZM",
    "languages": "en-ZM,bem,loz,lun,lue,ny,toi",
    "Name_EN": "Zambia",
    "Name_FA": "زامبیا",
    "Name_AR": "زامبيا",
    "PhoneCode": "260",
    "Latitude": -13.55052204081632,
    "Longitude": 28.122445306122454
  },
  {
    "Id": "878675",
    "Code": "ZW",
    "languages": "en-ZW,sn,nr,nd",
    "Name_EN": "Zimbabwe",
    "Name_FA": "زیمبابوه",
    "Name_AR": "زيمبابوي",
    "PhoneCode": "263",
    "Latitude": -18.49414811594203,
    "Longitude": 30.354578550724646
  },
  {
    "Id": "8505033",
    "Code": "CS",
    "languages": "cu,hu,sq,sr",
    "Name_EN": "Serbia and Montenegro",
    "Name_FA": "",
    "Name_AR": "صربيا والجبل الاسود",
    "PhoneCode": "381",
    "Latitude": 0,
    "Longitude": 0
  },
  {
    "Id": "8505032",
    "Code": "AN",
    "languages": "nl-AN,en,es",
    "Name_EN": "Netherlands Antilles",
    "Name_FA": "",
    "Name_AR": "الانتيل الهولندية",
    "PhoneCode": "599",
    "Latitude": 0,
    "Longitude": 0
  }
]